{"type":"FeatureCollection","features":[{"type":"Feature","properties":{"name":"New York, NY","rank":1,"churches":3560,"density":100},"geometry":{"type":"Point","coordinates":[-74.006,40.7128]}},{"type":"Feature","properties":{"name":"Los Angeles, CA","rank":2,"churches":2922,"density":98},"geometry":{"type":"Point","coordinates":[-118.2437,34.0522]}},{"type":"Feature","properties":{"name":"Chicago, IL","rank":3,"churches":2133,"density":94},"geometry":{"type":"Point","coordinates":[-87.6298,41.8781]}},{"type":"Feature","properties":{"name":"Houston, TX","rank":4,"churches":1999,"density":93},"geometry":{"type":"Point","coordinates":[-95.3698,29.7604]}},{"type":"Feature","properties":{"name":"Phoenix, AZ","rank":5,"churches":273,"density":69},"geometry":{"type":"Point","coordinates":[-112.074,33.4484]}},{"type":"Feature","properties":{"name":"Philadelphia, PA","rank":6,"churches":2851,"density":97},"geometry":{"type":"Point","coordinates":[-75.1652,39.9526]}},{"type":"Feature","properties":{"name":"San Antonio, TX","rank":7,"churches":851,"density":82},"geometry":{"type":"Point","coordinates":[-98.4936,29.4241]}},{"type":"Feature","properties":{"name":"Dallas, TX","rank":8,"churches":1950,"density":93},"geometry":{"type":"Point","coordinates":[-96.797,32.7767]}},{"type":"Feature","properties":{"name":"Miami, FL","rank":9,"churches":496,"density":76},"geometry":{"type":"Point","coordinates":[-80.1918,25.7617]}},{"type":"Feature","properties":{"name":"Atlanta, GA","rank":10,"churches":2319,"density":95},"geometry":{"type":"Point","coordinates":[-84.388,33.749]}},{"type":"Feature","properties":{"name":"Boston, MA","rank":11,"churches":1382,"density":88},"geometry":{"type":"Point","coordinates":[-71.0589,42.3601]}},{"type":"Feature","properties":{"name":"San Francisco, CA","rank":12,"churches":1166,"density":86},"geometry":{"type":"Point","coordinates":[-122.4194,37.7749]}},{"type":"Feature","properties":{"name":"Seattle, WA","rank":13,"churches":392,"density":73},"geometry":{"type":"Point","coordinates":[-122.3321,47.6062]}},{"type":"Feature","properties":{"name":"Denver, CO","rank":14,"churches":467,"density":75},"geometry":{"type":"Point","coordinates":[-104.9903,39.7392]}},{"type":"Feature","properties":{"name":"Washington, DC","rank":15,"churches":2666,"density":96},"geometry":{"type":"Point","coordinates":[-77.0369,38.9072]}},{"type":"Feature","properties":{"name":"Nashville, TN","rank":16,"churches":2711,"density":97},"geometry":{"type":"Point","coordinates":[-86.7816,36.1627]}},{"type":"Feature","properties":{"name":"Detroit, MI","rank":17,"churches":838,"density":82},"geometry":{"type":"Point","coordinates":[-83.0458,42.3314]}},{"type":"Feature","properties":{"name":"Portland, OR","rank":18,"churches":288,"density":69},"geometry":{"type":"Point","coordinates":[-122.6784,45.5152]}},{"type":"Feature","properties":{"name":"Minneapolis, MN","rank":19,"churches":249,"density":67},"geometry":{"type":"Point","coordinates":[-93.265,44.9778]}},{"type":"Feature","properties":{"name":"Charlotte, NC","rank":20,"churches":2984,"density":98},"geometry":{"type":"Point","coordinates":[-80.8431,35.2271]}},{"type":"Feature","properties":{"name":"Las Vegas, NV","rank":21,"churches":164,"density":62},"geometry":{"type":"Point","coordinates":[-115.1398,36.1699]}},{"type":"Feature","properties":{"name":"Orlando, FL","rank":22,"churches":1970,"density":93},"geometry":{"type":"Point","coordinates":[-81.3792,28.5383]}},{"type":"Feature","properties":{"name":"St. Louis, MO","rank":23,"churches":1255,"density":87},"geometry":{"type":"Point","coordinates":[-90.1994,38.627]}},{"type":"Feature","properties":{"name":"Tampa, FL","rank":24,"churches":1274,"density":87},"geometry":{"type":"Point","coordinates":[-82.4572,27.9506]}},{"type":"Feature","properties":{"name":"New Orleans, LA","rank":25,"churches":1380,"density":88},"geometry":{"type":"Point","coordinates":[-90.0715,29.9511]}}]}