{"type": "FeatureCollection", "features": [{"type": "Feature", "properties": {"id": "poi_1", "name": "Temple Beth El", "category": "synagogues", "city": "Lakewood, NJ"}, "geometry": {"type": "Point", "coordinates": [-74.232772929516, 40.11481910550115]}}, {"type": "Feature", "properties": {"id": "poi_2", "name": "Congregation Shaarei Torah", "category": "synagogues", "city": "Lakewood, NJ"}, "geometry": {"type": "Point", "coordinates": [-74.21213818365882, 40.080452621522994]}}, {"type": "Feature", "properties": {"id": "poi_3", "name": "Young Israel", "category": "synagogues", "city": "Lakewood, NJ"}, "geometry": {"type": "Point", "coordinates": [-74.21242856509915, 40.100614388142]}}, {"type": "Feature", "properties": {"id": "poi_4", "name": "Chabad of Midtown", "category": "chabad", "city": "Lakewood, NJ"}, "geometry": {"type": "Point", "coordinates": [-74.22134738308114, 40.099287226903705]}}, {"type": "Feature", "properties": {"id": "poi_5", "name": "Chabad Jewish Center", "category": "chabad", "city": "Lakewood, NJ"}, "geometry": {"type": "Point", "coordinates": [-74.21764480912739, 40.11410718077256]}}, {"type": "Feature", "properties": {"id": "poi_6", "name": "Chabad House", "category": "chabad", "city": "Lakewood, NJ"}, "geometry": {"type": "Point", "coordinates": [-74.2373563559422, 40.114628765504854]}}, {"type": "Feature", "properties": {"id": "poi_7", "name": "Chabad Lubavitch", "category": "chabad", "city": "Lakewood, NJ"}, "geometry": {"type": "Point", "coordinates": [-74.23591278595174, 40.0849520785858]}}, {"type": "Feature", "properties": {"id": "poi_8", "name": "Jerusalem Grill", "category": "kosher_restaurants", "city": "Lakewood, NJ"}, "geometry": {"type": "Point", "coordinates": [-74.20765175611577, 40.10133289116063]}}, {"type": "Feature", "properties": {"id": "poi_9", "name": "Kosher Palace", "category": "kosher_restaurants", "city": "Lakewood, NJ"}, "geometry": {"type": "Point", "coordinates": [-74.20907803147283, 40.095297997877736]}}, {"type": "Feature", "properties": {"id": "poi_10", "name": "The Kosher Kitchen", "category": "kosher_restaurants", "city": "Lakewood, NJ"}, "geometry": {"type": "Point", "coordinates": [-74.21462075579102, 40.10285843194484]}}, {"type": "Feature", "properties": {"id": "poi_11", "name": "JCC Manhattan", "category": "jccs", "city": "Lakewood, NJ"}, "geometry": {"type": "Point", "coordinates": [-74.21882548403865, 40.094854987104284]}}, {"type": "Feature", "properties": {"id": "poi_12", "name": "JCC of Greater Boston", "category": "jccs", "city": "Lakewood, NJ"}, "geometry": {"type": "Point", "coordinates": [-74.22013109975177, 40.11335109367978]}}, {"type": "Feature", "properties": {"id": "poi_13", "name": "Yeshiva Academy", "category": "day_schools", "city": "Lakewood, NJ"}, "geometry": {"type": "Point", "coordinates": [-74.22324324027406, 40.0777257823249]}}, {"type": "Feature", "properties": {"id": "poi_14", "name": "Jewish Day School", "category": "day_schools", "city": "Lakewood, NJ"}, "geometry": {"type": "Point", "coordinates": [-74.23716608866873, 40.07921026427963]}}, {"type": "Feature", "properties": {"id": "poi_15", "name": "Torah Academy", "category": "day_schools", "city": "Lakewood, NJ"}, "geometry": {"type": "Point", "coordinates": [-74.23152917357856, 40.08653876524679]}}, {"type": "Feature", "properties": {"id": "poi_16", "name": "Hebrew Academy", "category": "day_schools", "city": "Lakewood, NJ"}, "geometry": {"type": "Point", "coordinates": [-74.23357357992474, 40.090531205202836]}}, {"type": "Feature", "properties": {"id": "poi_17", "name": "Jewish Heritage Museum", "category": "jewish_museums", "city": "Lakewood, NJ"}, "geometry": {"type": "Point", "coordinates": [-74.21506985554916, 40.07847606388034]}}, {"type": "Feature", "properties": {"id": "poi_18", "name": "Holocaust Memorial Museum", "category": "jewish_museums", "city": "Lakewood, NJ"}, "geometry": {"type": "Point", "coordinates": [-74.21366856129436, 40.110042346149555]}}, {"type": "Feature", "properties": {"id": "poi_19", "name": "Temple Beth El", "category": "synagogues", "city": "Brooklyn, NY"}, "geometry": {"type": "Point", "coordinates": [-73.93789092607831, 40.676553567471736]}}, {"type": "Feature", "properties": {"id": "poi_20", "name": "Congregation Shaarei Torah", "category": "synagogues", "city": "Brooklyn, NY"}, "geometry": {"type": "Point", "coordinates": [-73.95710504007609, 40.668595613211885]}}, {"type": "Feature", "properties": {"id": "poi_21", "name": "Young Israel", "category": "synagogues", "city": "Brooklyn, NY"}, "geometry": {"type": "Point", "coordinates": [-73.92428524625414, 40.6900854782344]}}, {"type": "Feature", "properties": {"id": "poi_22", "name": "Ohev Shalom Synagogue", "category": "synagogues", "city": "Brooklyn, NY"}, "geometry": {"type": "Point", "coordinates": [-73.93335713805693, 40.66145209196001]}}, {"type": "Feature", "properties": {"id": "poi_23", "name": "Chabad of Midtown", "category": "chabad", "city": "Brooklyn, NY"}, "geometry": {"type": "Point", "coordinates": [-73.93015357878961, 40.69222344784175]}}, {"type": "Feature", "properties": {"id": "poi_24", "name": "Chabad Jewish Center", "category": "chabad", "city": "Brooklyn, NY"}, "geometry": {"type": "Point", "coordinates": [-73.95209750908842, 40.68516527585672]}}, {"type": "Feature", "properties": {"id": "poi_25", "name": "Chabad House", "category": "chabad", "city": "Brooklyn, NY"}, "geometry": {"type": "Point", "coordinates": [-73.95627497679864, 40.65931748026779]}}, {"type": "Feature", "properties": {"id": "poi_26", "name": "Chabad Lubavitch", "category": "chabad", "city": "Brooklyn, NY"}, "geometry": {"type": "Point", "coordinates": [-73.94534941453135, 40.69736436920211]}}, {"type": "Feature", "properties": {"id": "poi_27", "name": "Jerusalem Grill", "category": "kosher_restaurants", "city": "Brooklyn, NY"}, "geometry": {"type": "Point", "coordinates": [-73.94050600029776, 40.694881556451215]}}, {"type": "Feature", "properties": {"id": "poi_28", "name": "Kosher Palace", "category": "kosher_restaurants", "city": "Brooklyn, NY"}, "geometry": {"type": "Point", "coordinates": [-73.92977213959854, 40.69128549831001]}}, {"type": "Feature", "properties": {"id": "poi_29", "name": "The Kosher Kitchen", "category": "kosher_restaurants", "city": "Brooklyn, NY"}, "geometry": {"type": "Point", "coordinates": [-73.9572473416375, 40.67004041358584]}}, {"type": "Feature", "properties": {"id": "poi_30", "name": "JCC Manhattan", "category": "jccs", "city": "Brooklyn, NY"}, "geometry": {"type": "Point", "coordinates": [-73.94618329318207, 40.66127704505456]}}, {"type": "Feature", "properties": {"id": "poi_31", "name": "JCC of Greater Boston", "category": "jccs", "city": "Brooklyn, NY"}, "geometry": {"type": "Point", "coordinates": [-73.9611153096665, 40.66117435319092]}}, {"type": "Feature", "properties": {"id": "poi_32", "name": "South Florida JCC", "category": "jccs", "city": "Brooklyn, NY"}, "geometry": {"type": "Point", "coordinates": [-73.96418484610258, 40.6684459541431]}}, {"type": "Feature", "properties": {"id": "poi_33", "name": "Yeshiva Academy", "category": "day_schools", "city": "Brooklyn, NY"}, "geometry": {"type": "Point", "coordinates": [-73.93699679325003, 40.67530107738787]}}, {"type": "Feature", "properties": {"id": "poi_34", "name": "Jewish Day School", "category": "day_schools", "city": "Brooklyn, NY"}, "geometry": {"type": "Point", "coordinates": [-73.9316931999412, 40.67539202912401]}}, {"type": "Feature", "properties": {"id": "poi_35", "name": "Jewish Heritage Museum", "category": "jewish_museums", "city": "Brooklyn, NY"}, "geometry": {"type": "Point", "coordinates": [-73.94125247549076, 40.66248763278439]}}, {"type": "Feature", "properties": {"id": "poi_36", "name": "Holocaust Memorial Museum", "category": "jewish_museums", "city": "Brooklyn, NY"}, "geometry": {"type": "Point", "coordinates": [-73.95263521707355, 40.68854146106541]}}, {"type": "Feature", "properties": {"id": "poi_37", "name": "Temple Beth El", "category": "synagogues", "city": "Monsey, NY"}, "geometry": {"type": "Point", "coordinates": [-74.08436498805804, 41.107510970512074]}}, {"type": "Feature", "properties": {"id": "poi_38", "name": "Congregation Shaarei Torah", "category": "synagogues", "city": "Monsey, NY"}, "geometry": {"type": "Point", "coordinates": [-74.07219047592477, 41.13106034868469]}}, {"type": "Feature", "properties": {"id": "poi_39", "name": "Chabad of Midtown", "category": "chabad", "city": "Monsey, NY"}, "geometry": {"type": "Point", "coordinates": [-74.05638280390818, 41.097342453774765]}}, {"type": "Feature", "properties": {"id": "poi_40", "name": "Chabad Jewish Center", "category": "chabad", "city": "Monsey, NY"}, "geometry": {"type": "Point", "coordinates": [-74.06678185379066, 41.118403579017276]}}, {"type": "Feature", "properties": {"id": "poi_41", "name": "Jerusalem Grill", "category": "kosher_restaurants", "city": "Monsey, NY"}, "geometry": {"type": "Point", "coordinates": [-74.06434878490029, 41.10337168816091]}}, {"type": "Feature", "properties": {"id": "poi_42", "name": "Kosher Palace", "category": "kosher_restaurants", "city": "Monsey, NY"}, "geometry": {"type": "Point", "coordinates": [-74.06116164553352, 41.12920039798273]}}, {"type": "Feature", "properties": {"id": "poi_43", "name": "The Kosher Kitchen", "category": "kosher_restaurants", "city": "Monsey, NY"}, "geometry": {"type": "Point", "coordinates": [-74.05979425565802, 41.106995112281496]}}, {"type": "Feature", "properties": {"id": "poi_44", "name": "Shalom Falafel", "category": "kosher_restaurants", "city": "Monsey, NY"}, "geometry": {"type": "Point", "coordinates": [-74.08540425512484, 41.118730650029995]}}, {"type": "Feature", "properties": {"id": "poi_45", "name": "JCC Manhattan", "category": "jccs", "city": "Monsey, NY"}, "geometry": {"type": "Point", "coordinates": [-74.0877563916201, 41.12354275110333]}}, {"type": "Feature", "properties": {"id": "poi_46", "name": "JCC of Greater Boston", "category": "jccs", "city": "Monsey, NY"}, "geometry": {"type": "Point", "coordinates": [-74.0673336834816, 41.12405134605533]}}, {"type": "Feature", "properties": {"id": "poi_47", "name": "Yeshiva Academy", "category": "day_schools", "city": "Monsey, NY"}, "geometry": {"type": "Point", "coordinates": [-74.08117111611617, 41.11333355077309]}}, {"type": "Feature", "properties": {"id": "poi_48", "name": "Jewish Day School", "category": "day_schools", "city": "Monsey, NY"}, "geometry": {"type": "Point", "coordinates": [-74.0569014443777, 41.09285521288373]}}, {"type": "Feature", "properties": {"id": "poi_49", "name": "Torah Academy", "category": "day_schools", "city": "Monsey, NY"}, "geometry": {"type": "Point", "coordinates": [-74.08642595002956, 41.12521078161745]}}, {"type": "Feature", "properties": {"id": "poi_50", "name": "Jewish Heritage Museum", "category": "jewish_museums", "city": "Monsey, NY"}, "geometry": {"type": "Point", "coordinates": [-74.06808838152807, 41.11224623273056]}}, {"type": "Feature", "properties": {"id": "poi_51", "name": "Holocaust Memorial Museum", "category": "jewish_museums", "city": "Monsey, NY"}, "geometry": {"type": "Point", "coordinates": [-74.06700362514117, 41.12692991809883]}}, {"type": "Feature", "properties": {"id": "poi_52", "name": "Temple Beth El", "category": "synagogues", "city": "Manhattan, NY"}, "geometry": {"type": "Point", "coordinates": [-73.96258424888825, 40.79919396435515]}}, {"type": "Feature", "properties": {"id": "poi_53", "name": "Congregation Shaarei Torah", "category": "synagogues", "city": "Manhattan, NY"}, "geometry": {"type": "Point", "coordinates": [-73.96312050986799, 40.77400663942453]}}, {"type": "Feature", "properties": {"id": "poi_54", "name": "Young Israel", "category": "synagogues", "city": "Manhattan, NY"}, "geometry": {"type": "Point", "coordinates": [-73.97957783463113, 40.78101511768508]}}, {"type": "Feature", "properties": {"id": "poi_55", "name": "Chabad of Midtown", "category": "chabad", "city": "Manhattan, NY"}, "geometry": {"type": "Point", "coordinates": [-73.97862712350505, 40.79557370217893]}}, {"type": "Feature", "properties": {"id": "poi_56", "name": "Chabad Jewish Center", "category": "chabad", "city": "Manhattan, NY"}, "geometry": {"type": "Point", "coordinates": [-73.97383800649452, 40.794818594622136]}}, {"type": "Feature", "properties": {"id": "poi_57", "name": "Chabad House", "category": "chabad", "city": "Manhattan, NY"}, "geometry": {"type": "Point", "coordinates": [-73.9691214422277, 40.79129128490741]}}, {"type": "Feature", "properties": {"id": "poi_58", "name": "Jerusalem Grill", "category": "kosher_restaurants", "city": "Manhattan, NY"}, "geometry": {"type": "Point", "coordinates": [-73.97717223163521, 40.7753488535475]}}, {"type": "Feature", "properties": {"id": "poi_59", "name": "Kosher Palace", "category": "kosher_restaurants", "city": "Manhattan, NY"}, "geometry": {"type": "Point", "coordinates": [-73.95843579037792, 40.78286544323694]}}, {"type": "Feature", "properties": {"id": "poi_60", "name": "The Kosher Kitchen", "category": "kosher_restaurants", "city": "Manhattan, NY"}, "geometry": {"type": "Point", "coordinates": [-73.97277764028465, 40.76449748579656]}}, {"type": "Feature", "properties": {"id": "poi_61", "name": "Shalom Falafel", "category": "kosher_restaurants", "city": "Manhattan, NY"}, "geometry": {"type": "Point", "coordinates": [-73.98930743598191, 40.7707173839751]}}, {"type": "Feature", "properties": {"id": "poi_62", "name": "JCC Manhattan", "category": "jccs", "city": "Manhattan, NY"}, "geometry": {"type": "Point", "coordinates": [-73.98599360623696, 40.78136882684461]}}, {"type": "Feature", "properties": {"id": "poi_63", "name": "JCC of Greater Boston", "category": "jccs", "city": "Manhattan, NY"}, "geometry": {"type": "Point", "coordinates": [-73.95299629979237, 40.80252923777182]}}, {"type": "Feature", "properties": {"id": "poi_64", "name": "South Florida JCC", "category": "jccs", "city": "Manhattan, NY"}, "geometry": {"type": "Point", "coordinates": [-73.95596602119106, 40.77290085439268]}}, {"type": "Feature", "properties": {"id": "poi_65", "name": "Yeshiva Academy", "category": "day_schools", "city": "Manhattan, NY"}, "geometry": {"type": "Point", "coordinates": [-73.95303055280532, 40.77762158992774]}}, {"type": "Feature", "properties": {"id": "poi_66", "name": "Jewish Day School", "category": "day_schools", "city": "Manhattan, NY"}, "geometry": {"type": "Point", "coordinates": [-73.97518300740441, 40.7871364248241]}}, {"type": "Feature", "properties": {"id": "poi_67", "name": "Torah Academy", "category": "day_schools", "city": "Manhattan, NY"}, "geometry": {"type": "Point", "coordinates": [-73.96384334529156, 40.78444024974567]}}, {"type": "Feature", "properties": {"id": "poi_68", "name": "Jewish Heritage Museum", "category": "jewish_museums", "city": "Manhattan, NY"}, "geometry": {"type": "Point", "coordinates": [-73.96211444310835, 40.777844380558776]}}, {"type": "Feature", "properties": {"id": "poi_69", "name": "Holocaust Memorial Museum", "category": "jewish_museums", "city": "Manhattan, NY"}, "geometry": {"type": "Point", "coordinates": [-73.98089255615847, 40.767389960951874]}}, {"type": "Feature", "properties": {"id": "poi_70", "name": "Temple Beth El", "category": "synagogues", "city": "Teaneck, NJ"}, "geometry": {"type": "Point", "coordinates": [-74.0109197782722, 40.91224391210732]}}, {"type": "Feature", "properties": {"id": "poi_71", "name": "Congregation Shaarei Torah", "category": "synagogues", "city": "Teaneck, NJ"}, "geometry": {"type": "Point", "coordinates": [-74.00908014186324, 40.89811459769413]}}, {"type": "Feature", "properties": {"id": "poi_72", "name": "Young Israel", "category": "synagogues", "city": "Teaneck, NJ"}, "geometry": {"type": "Point", "coordinates": [-74.0053434885051, 40.900485069003246]}}, {"type": "Feature", "properties": {"id": "poi_73", "name": "Ohev Shalom Synagogue", "category": "synagogues", "city": "Teaneck, NJ"}, "geometry": {"type": "Point", "coordinates": [-74.0332942458382, 40.9123273510062]}}, {"type": "Feature", "properties": {"id": "poi_74", "name": "Chabad of Midtown", "category": "chabad", "city": "Teaneck, NJ"}, "geometry": {"type": "Point", "coordinates": [-74.0108575493047, 40.89272666793244]}}, {"type": "Feature", "properties": {"id": "poi_75", "name": "Chabad Jewish Center", "category": "chabad", "city": "Teaneck, NJ"}, "geometry": {"type": "Point", "coordinates": [-74.02800990453217, 40.90871850063491]}}, {"type": "Feature", "properties": {"id": "poi_76", "name": "Chabad House", "category": "chabad", "city": "Teaneck, NJ"}, "geometry": {"type": "Point", "coordinates": [-74.03374874929906, 40.893637777295]}}, {"type": "Feature", "properties": {"id": "poi_77", "name": "Chabad Lubavitch", "category": "chabad", "city": "Teaneck, NJ"}, "geometry": {"type": "Point", "coordinates": [-73.99676312977414, 40.884329835119324]}}, {"type": "Feature", "properties": {"id": "poi_78", "name": "Jerusalem Grill", "category": "kosher_restaurants", "city": "Teaneck, NJ"}, "geometry": {"type": "Point", "coordinates": [-74.03089608011554, 40.916162482364]}}, {"type": "Feature", "properties": {"id": "poi_79", "name": "Kosher Palace", "category": "kosher_restaurants", "city": "Teaneck, NJ"}, "geometry": {"type": "Point", "coordinates": [-74.00576034828835, 40.896257242082996]}}, {"type": "Feature", "properties": {"id": "poi_80", "name": "The Kosher Kitchen", "category": "kosher_restaurants", "city": "Teaneck, NJ"}, "geometry": {"type": "Point", "coordinates": [-74.00637678926041, 40.885989363254794]}}, {"type": "Feature", "properties": {"id": "poi_81", "name": "JCC Manhattan", "category": "jccs", "city": "Teaneck, NJ"}, "geometry": {"type": "Point", "coordinates": [-74.02741813504474, 40.8959992350304]}}, {"type": "Feature", "properties": {"id": "poi_82", "name": "JCC of Greater Boston", "category": "jccs", "city": "Teaneck, NJ"}, "geometry": {"type": "Point", "coordinates": [-74.01852463009494, 40.892833447468846]}}, {"type": "Feature", "properties": {"id": "poi_83", "name": "Yeshiva Academy", "category": "day_schools", "city": "Teaneck, NJ"}, "geometry": {"type": "Point", "coordinates": [-74.02594310105711, 40.91731039568586]}}, {"type": "Feature", "properties": {"id": "poi_84", "name": "Jewish Day School", "category": "day_schools", "city": "Teaneck, NJ"}, "geometry": {"type": "Point", "coordinates": [-74.00861174223675, 40.90284064513003]}}, {"type": "Feature", "properties": {"id": "poi_85", "name": "Jewish Heritage Museum", "category": "jewish_museums", "city": "Teaneck, NJ"}, "geometry": {"type": "Point", "coordinates": [-74.03127857337554, 40.8884977296318]}}, {"type": "Feature", "properties": {"id": "poi_86", "name": "Holocaust Memorial Museum", "category": "jewish_museums", "city": "Teaneck, NJ"}, "geometry": {"type": "Point", "coordinates": [-74.02212093200663, 40.902044439446136]}}, {"type": "Feature", "properties": {"id": "poi_87", "name": "Temple Beth El", "category": "synagogues", "city": "Five Towns, NY"}, "geometry": {"type": "Point", "coordinates": [-73.72303017204275, 40.64275366285915]}}, {"type": "Feature", "properties": {"id": "poi_88", "name": "Congregation Shaarei Torah", "category": "synagogues", "city": "Five Towns, NY"}, "geometry": {"type": "Point", "coordinates": [-73.73526857153801, 40.62299074282831]}}, {"type": "Feature", "properties": {"id": "poi_89", "name": "Young Israel", "category": "synagogues", "city": "Five Towns, NY"}, "geometry": {"type": "Point", "coordinates": [-73.7359260074926, 40.63455399770882]}}, {"type": "Feature", "properties": {"id": "poi_90", "name": "Ohev Shalom Synagogue", "category": "synagogues", "city": "Five Towns, NY"}, "geometry": {"type": "Point", "coordinates": [-73.7339384009934, 40.61153847345364]}}, {"type": "Feature", "properties": {"id": "poi_91", "name": "Chabad of Midtown", "category": "chabad", "city": "Five Towns, NY"}, "geometry": {"type": "Point", "coordinates": [-73.72274446621296, 40.636747789021186]}}, {"type": "Feature", "properties": {"id": "poi_92", "name": "Chabad Jewish Center", "category": "chabad", "city": "Five Towns, NY"}, "geometry": {"type": "Point", "coordinates": [-73.73409979054551, 40.62998451124506]}}, {"type": "Feature", "properties": {"id": "poi_93", "name": "Chabad House", "category": "chabad", "city": "Five Towns, NY"}, "geometry": {"type": "Point", "coordinates": [-73.73309699768872, 40.62052328845434]}}, {"type": "Feature", "properties": {"id": "poi_94", "name": "Jerusalem Grill", "category": "kosher_restaurants", "city": "Five Towns, NY"}, "geometry": {"type": "Point", "coordinates": [-73.71352543179931, 40.634414454056476]}}, {"type": "Feature", "properties": {"id": "poi_95", "name": "Kosher Palace", "category": "kosher_restaurants", "city": "Five Towns, NY"}, "geometry": {"type": "Point", "coordinates": [-73.7220842212828, 40.63591737813354]}}, {"type": "Feature", "properties": {"id": "poi_96", "name": "JCC Manhattan", "category": "jccs", "city": "Five Towns, NY"}, "geometry": {"type": "Point", "coordinates": [-73.72758281931242, 40.62537517569132]}}, {"type": "Feature", "properties": {"id": "poi_97", "name": "JCC of Greater Boston", "category": "jccs", "city": "Five Towns, NY"}, "geometry": {"type": "Point", "coordinates": [-73.7302168182654, 40.61510246322688]}}, {"type": "Feature", "properties": {"id": "poi_98", "name": "Yeshiva Academy", "category": "day_schools", "city": "Five Towns, NY"}, "geometry": {"type": "Point", "coordinates": [-73.72468902818197, 40.64687645465107]}}, {"type": "Feature", "properties": {"id": "poi_99", "name": "Jewish Day School", "category": "day_schools", "city": "Five Towns, NY"}, "geometry": {"type": "Point", "coordinates": [-73.715433535407, 40.63652605752037]}}, {"type": "Feature", "properties": {"id": "poi_100", "name": "Torah Academy", "category": "day_schools", "city": "Five Towns, NY"}, "geometry": {"type": "Point", "coordinates": [-73.73580192557576, 40.614553895899924]}}, {"type": "Feature", "properties": {"id": "poi_101", "name": "Hebrew Academy", "category": "day_schools", "city": "Five Towns, NY"}, "geometry": {"type": "Point", "coordinates": [-73.73390457180648, 40.641187398633086]}}, {"type": "Feature", "properties": {"id": "poi_102", "name": "Jewish Heritage Museum", "category": "jewish_museums", "city": "Five Towns, NY"}, "geometry": {"type": "Point", "coordinates": [-73.70702164799232, 40.6282833830335]}}, {"type": "Feature", "properties": {"id": "poi_103", "name": "Holocaust Memorial Museum", "category": "jewish_museums", "city": "Five Towns, NY"}, "geometry": {"type": "Point", "coordinates": [-73.72319160005394, 40.64624179701998]}}, {"type": "Feature", "properties": {"id": "poi_104", "name": "Temple Beth El", "category": "synagogues", "city": "Great Neck, NY"}, "geometry": {"type": "Point", "coordinates": [-73.71161166361637, 40.80122458484901]}}, {"type": "Feature", "properties": {"id": "poi_105", "name": "Congregation Shaarei Torah", "category": "synagogues", "city": "Great Neck, NY"}, "geometry": {"type": "Point", "coordinates": [-73.72989902905377, 40.79507743977317]}}, {"type": "Feature", "properties": {"id": "poi_106", "name": "Young Israel", "category": "synagogues", "city": "Great Neck, NY"}, "geometry": {"type": "Point", "coordinates": [-73.72684083256149, 40.80567151034511]}}, {"type": "Feature", "properties": {"id": "poi_107", "name": "Ohev Shalom Synagogue", "category": "synagogues", "city": "Great Neck, NY"}, "geometry": {"type": "Point", "coordinates": [-73.71625558540467, 40.81666509798673]}}, {"type": "Feature", "properties": {"id": "poi_108", "name": "Chabad of Midtown", "category": "chabad", "city": "Great Neck, NY"}, "geometry": {"type": "Point", "coordinates": [-73.74663307315963, 40.80516436683107]}}, {"type": "Feature", "properties": {"id": "poi_109", "name": "Chabad Jewish Center", "category": "chabad", "city": "Great Neck, NY"}, "geometry": {"type": "Point", "coordinates": [-73.72762301505011, 40.81087662451019]}}, {"type": "Feature", "properties": {"id": "poi_110", "name": "Jerusalem Grill", "category": "kosher_restaurants", "city": "Great Neck, NY"}, "geometry": {"type": "Point", "coordinates": [-73.73691877038758, 40.788481091081366]}}, {"type": "Feature", "properties": {"id": "poi_111", "name": "Kosher Palace", "category": "kosher_restaurants", "city": "Great Neck, NY"}, "geometry": {"type": "Point", "coordinates": [-73.73623535151641, 40.800403283341005]}}, {"type": "Feature", "properties": {"id": "poi_112", "name": "The Kosher Kitchen", "category": "kosher_restaurants", "city": "Great Neck, NY"}, "geometry": {"type": "Point", "coordinates": [-73.7214200906091, 40.79239204997847]}}, {"type": "Feature", "properties": {"id": "poi_113", "name": "JCC Manhattan", "category": "jccs", "city": "Great Neck, NY"}, "geometry": {"type": "Point", "coordinates": [-73.70875855501065, 40.783971910170195]}}, {"type": "Feature", "properties": {"id": "poi_114", "name": "JCC of Greater Boston", "category": "jccs", "city": "Great Neck, NY"}, "geometry": {"type": "Point", "coordinates": [-73.73170502993037, 40.81813376046645]}}, {"type": "Feature", "properties": {"id": "poi_115", "name": "South Florida JCC", "category": "jccs", "city": "Great Neck, NY"}, "geometry": {"type": "Point", "coordinates": [-73.74576181228805, 40.7847629953907]}}, {"type": "Feature", "properties": {"id": "poi_116", "name": "Yeshiva Academy", "category": "day_schools", "city": "Great Neck, NY"}, "geometry": {"type": "Point", "coordinates": [-73.72344538794798, 40.813134640818085]}}, {"type": "Feature", "properties": {"id": "poi_117", "name": "Jewish Day School", "category": "day_schools", "city": "Great Neck, NY"}, "geometry": {"type": "Point", "coordinates": [-73.7299046521334, 40.81669447903772]}}, {"type": "Feature", "properties": {"id": "poi_118", "name": "Jewish Heritage Museum", "category": "jewish_museums", "city": "Great Neck, NY"}, "geometry": {"type": "Point", "coordinates": [-73.70998207647256, 40.79425217802616]}}, {"type": "Feature", "properties": {"id": "poi_119", "name": "Holocaust Memorial Museum", "category": "jewish_museums", "city": "Great Neck, NY"}, "geometry": {"type": "Point", "coordinates": [-73.712710127495, 40.81868139215688]}}, {"type": "Feature", "properties": {"id": "poi_120", "name": "Temple Beth El", "category": "synagogues", "city": "Passaic, NJ"}, "geometry": {"type": "Point", "coordinates": [-74.12871834599625, 40.87009384149215]}}, {"type": "Feature", "properties": {"id": "poi_121", "name": "Congregation Shaarei Torah", "category": "synagogues", "city": "Passaic, NJ"}, "geometry": {"type": "Point", "coordinates": [-74.14124285066897, 40.86076618548817]}}, {"type": "Feature", "properties": {"id": "poi_122", "name": "Chabad of Midtown", "category": "chabad", "city": "Passaic, NJ"}, "geometry": {"type": "Point", "coordinates": [-74.1291123078372, 40.87569661246673]}}, {"type": "Feature", "properties": {"id": "poi_123", "name": "Chabad Jewish Center", "category": "chabad", "city": "Passaic, NJ"}, "geometry": {"type": "Point", "coordinates": [-74.12475691378373, 40.85332052415066]}}, {"type": "Feature", "properties": {"id": "poi_124", "name": "Chabad House", "category": "chabad", "city": "Passaic, NJ"}, "geometry": {"type": "Point", "coordinates": [-74.13798879366665, 40.871911631346535]}}, {"type": "Feature", "properties": {"id": "poi_125", "name": "Jerusalem Grill", "category": "kosher_restaurants", "city": "Passaic, NJ"}, "geometry": {"type": "Point", "coordinates": [-74.12629943426408, 40.86641752072679]}}, {"type": "Feature", "properties": {"id": "poi_126", "name": "Kosher Palace", "category": "kosher_restaurants", "city": "Passaic, NJ"}, "geometry": {"type": "Point", "coordinates": [-74.14811769487866, 40.843285526980736]}}, {"type": "Feature", "properties": {"id": "poi_127", "name": "The Kosher Kitchen", "category": "kosher_restaurants", "city": "Passaic, NJ"}, "geometry": {"type": "Point", "coordinates": [-74.13447444798442, 40.84345456941035]}}, {"type": "Feature", "properties": {"id": "poi_128", "name": "JCC Manhattan", "category": "jccs", "city": "Passaic, NJ"}, "geometry": {"type": "Point", "coordinates": [-74.11073855781468, 40.864917499334574]}}, {"type": "Feature", "properties": {"id": "poi_129", "name": "JCC of Greater Boston", "category": "jccs", "city": "Passaic, NJ"}, "geometry": {"type": "Point", "coordinates": [-74.13386180913558, 40.86140771298281]}}, {"type": "Feature", "properties": {"id": "poi_130", "name": "South Florida JCC", "category": "jccs", "city": "Passaic, NJ"}, "geometry": {"type": "Point", "coordinates": [-74.14542637049638, 40.86475750253334]}}, {"type": "Feature", "properties": {"id": "poi_131", "name": "Yeshiva Academy", "category": "day_schools", "city": "Passaic, NJ"}, "geometry": {"type": "Point", "coordinates": [-74.13687025517125, 40.85890972311746]}}, {"type": "Feature", "properties": {"id": "poi_132", "name": "Jewish Day School", "category": "day_schools", "city": "Passaic, NJ"}, "geometry": {"type": "Point", "coordinates": [-74.14455424594834, 40.85613770624939]}}, {"type": "Feature", "properties": {"id": "poi_133", "name": "Torah Academy", "category": "day_schools", "city": "Passaic, NJ"}, "geometry": {"type": "Point", "coordinates": [-74.12285587036212, 40.86376131921029]}}, {"type": "Feature", "properties": {"id": "poi_134", "name": "Hebrew Academy", "category": "day_schools", "city": "Passaic, NJ"}, "geometry": {"type": "Point", "coordinates": [-74.11599383046116, 40.86493970462647]}}, {"type": "Feature", "properties": {"id": "poi_135", "name": "Jewish Heritage Museum", "category": "jewish_museums", "city": "Passaic, NJ"}, "geometry": {"type": "Point", "coordinates": [-74.14672327065298, 40.84964747958858]}}, {"type": "Feature", "properties": {"id": "poi_136", "name": "Holocaust Memorial Museum", "category": "jewish_museums", "city": "Passaic, NJ"}, "geometry": {"type": "Point", "coordinates": [-74.11856673382674, 40.84013855615859]}}, {"type": "Feature", "properties": {"id": "poi_137", "name": "Sinai Temple", "category": "synagogues", "city": "Los Angeles, CA"}, "geometry": {"type": "Point", "coordinates": [-118.3765, 34.0555]}}, {"type": "Feature", "properties": {"id": "poi_138", "name": "Wilshire Boulevard Temple", "category": "synagogues", "city": "Los Angeles, CA"}, "geometry": {"type": "Point", "coordinates": [-118.309, 34.062]}}, {"type": "Feature", "properties": {"id": "poi_139", "name": "Temple Israel of Hollywood", "category": "synagogues", "city": "Los Angeles, CA"}, "geometry": {"type": "Point", "coordinates": [-118.3458, 34.0985]}}, {"type": "Feature", "properties": {"id": "poi_140", "name": "Young Israel of Century City", "category": "synagogues", "city": "Los Angeles, CA"}, "geometry": {"type": "Point", "coordinates": [-118.417, 34.0555]}}, {"type": "Feature", "properties": {"id": "poi_141", "name": "Chabad of Brentwood", "category": "chabad", "city": "Los Angeles, CA"}, "geometry": {"type": "Point", "coordinates": [-118.474, 34.055]}}, {"type": "Feature", "properties": {"id": "poi_142", "name": "Chabad of Beverly Hills", "category": "chabad", "city": "Los Angeles, CA"}, "geometry": {"type": "Point", "coordinates": [-118.399, 34.0695]}}, {"type": "Feature", "properties": {"id": "poi_143", "name": "Chabad of Pacific Palisades", "category": "chabad", "city": "Los Angeles, CA"}, "geometry": {"type": "Point", "coordinates": [-118.528, 34.0435]}}, {"type": "Feature", "properties": {"id": "poi_144", "name": "Chabad of Hancock Park", "category": "chabad", "city": "Los Angeles, CA"}, "geometry": {"type": "Point", "coordinates": [-118.347, 34.073]}}, {"type": "Feature", "properties": {"id": "poi_145", "name": "Pat's Restaurant", "category": "kosher_restaurants", "city": "Los Angeles, CA"}, "geometry": {"type": "Point", "coordinates": [-118.364, 34.076]}}, {"type": "Feature", "properties": {"id": "poi_146", "name": "Jeff's Gourmet", "category": "kosher_restaurants", "city": "Los Angeles, CA"}, "geometry": {"type": "Point", "coordinates": [-118.363, 34.0685]}}, {"type": "Feature", "properties": {"id": "poi_147", "name": "Nagila Restaurant", "category": "kosher_restaurants", "city": "Los Angeles, CA"}, "geometry": {"type": "Point", "coordinates": [-118.388, 34.062]}}, {"type": "Feature", "properties": {"id": "poi_148", "name": "Schwartz Bakery", "category": "kosher_bakeries", "city": "Los Angeles, CA"}, "geometry": {"type": "Point", "coordinates": [-118.362, 34.0755]}}, {"type": "Feature", "properties": {"id": "poi_149", "name": "Diamond Bakery", "category": "kosher_bakeries", "city": "Los Angeles, CA"}, "geometry": {"type": "Point", "coordinates": [-118.365, 34.07]}}, {"type": "Feature", "properties": {"id": "poi_150", "name": "Elat Market", "category": "kosher_delis", "city": "Los Angeles, CA"}, "geometry": {"type": "Point", "coordinates": [-118.364, 34.075]}}, {"type": "Feature", "properties": {"id": "poi_151", "name": "Western Kosher Market", "category": "kosher_delis", "city": "Los Angeles, CA"}, "geometry": {"type": "Point", "coordinates": [-118.309, 34.048]}}, {"type": "Feature", "properties": {"id": "poi_152", "name": "Pressman Academy", "category": "day_schools", "city": "Los Angeles, CA"}, "geometry": {"type": "Point", "coordinates": [-118.3765, 34.0555]}}, {"type": "Feature", "properties": {"id": "poi_153", "name": "Yeshiva University HS", "category": "day_schools", "city": "Los Angeles, CA"}, "geometry": {"type": "Point", "coordinates": [-118.367, 34.0755]}}, {"type": "Feature", "properties": {"id": "poi_154", "name": "YULA High School", "category": "day_schools", "city": "Los Angeles, CA"}, "geometry": {"type": "Point", "coordinates": [-118.395, 34.0545]}}, {"type": "Feature", "properties": {"id": "poi_155", "name": "Shalhevet High School", "category": "day_schools", "city": "Los Angeles, CA"}, "geometry": {"type": "Point", "coordinates": [-118.36, 34.07]}}, {"type": "Feature", "properties": {"id": "poi_156", "name": "Hillel at UCLA", "category": "hillel", "city": "Los Angeles, CA"}, "geometry": {"type": "Point", "coordinates": [-118.4415, 34.07]}}, {"type": "Feature", "properties": {"id": "poi_157", "name": "Skirball Cultural Center", "category": "jewish_museums", "city": "Los Angeles, CA"}, "geometry": {"type": "Point", "coordinates": [-118.4795, 34.077]}}, {"type": "Feature", "properties": {"id": "poi_158", "name": "LA Museum of the Holocaust", "category": "jewish_museums", "city": "Los Angeles, CA"}, "geometry": {"type": "Point", "coordinates": [-118.364, 34.075]}}, {"type": "Feature", "properties": {"id": "poi_159", "name": "Westside JCC", "category": "jccs", "city": "Los Angeles, CA"}, "geometry": {"type": "Point", "coordinates": [-118.451, 34.046]}}, {"type": "Feature", "properties": {"id": "poi_160", "name": "Jewish Federation of LA", "category": "federations", "city": "Los Angeles, CA"}, "geometry": {"type": "Point", "coordinates": [-118.384, 34.062]}}, {"type": "Feature", "properties": {"id": "poi_161", "name": "Jewish Family Service of LA", "category": "jewish_family_services", "city": "Los Angeles, CA"}, "geometry": {"type": "Point", "coordinates": [-118.389, 34.041]}}, {"type": "Feature", "properties": {"id": "poi_162", "name": "Temple Emanu-El", "category": "synagogues", "city": "Miami Beach, FL"}, "geometry": {"type": "Point", "coordinates": [-80.134, 25.807]}}, {"type": "Feature", "properties": {"id": "poi_163", "name": "Beth David Congregation", "category": "synagogues", "city": "Miami, FL"}, "geometry": {"type": "Point", "coordinates": [-80.21, 25.759]}}, {"type": "Feature", "properties": {"id": "poi_164", "name": "The Shul of Bal Harbour", "category": "synagogues", "city": "Miami, FL"}, "geometry": {"type": "Point", "coordinates": [-80.126, 25.89]}}, {"type": "Feature", "properties": {"id": "poi_165", "name": "Young Israel of Bal Harbour", "category": "synagogues", "city": "Miami, FL"}, "geometry": {"type": "Point", "coordinates": [-80.127, 25.885]}}, {"type": "Feature", "properties": {"id": "poi_166", "name": "Chabad of South Beach", "category": "chabad", "city": "Miami Beach, FL"}, "geometry": {"type": "Point", "coordinates": [-80.13, 25.783]}}, {"type": "Feature", "properties": {"id": "poi_167", "name": "Chabad of Aventura", "category": "chabad", "city": "Miami, FL"}, "geometry": {"type": "Point", "coordinates": [-80.138, 25.956]}}, {"type": "Feature", "properties": {"id": "poi_168", "name": "Chabad of Coral Gables", "category": "chabad", "city": "Miami, FL"}, "geometry": {"type": "Point", "coordinates": [-80.265, 25.721]}}, {"type": "Feature", "properties": {"id": "poi_169", "name": "Pita Loca", "category": "kosher_restaurants", "city": "Miami Beach, FL"}, "geometry": {"type": "Point", "coordinates": [-80.135, 25.81]}}, {"type": "Feature", "properties": {"id": "poi_170", "name": "Backyard BBQ & Brew", "category": "kosher_restaurants", "city": "Miami, FL"}, "geometry": {"type": "Point", "coordinates": [-80.151, 25.937]}}, {"type": "Feature", "properties": {"id": "poi_171", "name": "Fuego by Mana", "category": "kosher_restaurants", "city": "Miami Beach, FL"}, "geometry": {"type": "Point", "coordinates": [-80.14, 25.8515]}}, {"type": "Feature", "properties": {"id": "poi_172", "name": "Kosher Kingdom", "category": "kosher_delis", "city": "Miami Beach, FL"}, "geometry": {"type": "Point", "coordinates": [-80.136, 25.848]}}, {"type": "Feature", "properties": {"id": "poi_173", "name": "Michael-Ann Russell JCC", "category": "jccs", "city": "Miami, FL"}, "geometry": {"type": "Point", "coordinates": [-80.1535, 25.932]}}, {"type": "Feature", "properties": {"id": "poi_174", "name": "Greater Miami Jewish Federation", "category": "federations", "city": "Miami, FL"}, "geometry": {"type": "Point", "coordinates": [-80.19, 25.7835]}}, {"type": "Feature", "properties": {"id": "poi_175", "name": "Hebrew Academy (RASG)", "category": "day_schools", "city": "Miami Beach, FL"}, "geometry": {"type": "Point", "coordinates": [-80.136, 25.858]}}, {"type": "Feature", "properties": {"id": "poi_176", "name": "Hillel Community Day School", "category": "day_schools", "city": "Miami, FL"}, "geometry": {"type": "Point", "coordinates": [-80.154, 25.934]}}, {"type": "Feature", "properties": {"id": "poi_177", "name": "Jewish Museum of Florida", "category": "jewish_museums", "city": "Miami Beach, FL"}, "geometry": {"type": "Point", "coordinates": [-80.131, 25.768]}}, {"type": "Feature", "properties": {"id": "poi_178", "name": "Anshe Sholom B'nai Israel", "category": "synagogues", "city": "Chicago, IL"}, "geometry": {"type": "Point", "coordinates": [-87.672, 41.94]}}, {"type": "Feature", "properties": {"id": "poi_179", "name": "Congregation Rodfei Zedek", "category": "synagogues", "city": "Chicago, IL"}, "geometry": {"type": "Point", "coordinates": [-87.5935, 41.7985]}}, {"type": "Feature", "properties": {"id": "poi_180", "name": "Chicago Loop Synagogue", "category": "synagogues", "city": "Chicago, IL"}, "geometry": {"type": "Point", "coordinates": [-87.631, 41.8815]}}, {"type": "Feature", "properties": {"id": "poi_181", "name": "Chabad of Lakeview", "category": "chabad", "city": "Chicago, IL"}, "geometry": {"type": "Point", "coordinates": [-87.653, 41.945]}}, {"type": "Feature", "properties": {"id": "poi_182", "name": "Chabad of the Loop", "category": "chabad", "city": "Chicago, IL"}, "geometry": {"type": "Point", "coordinates": [-87.629, 41.883]}}, {"type": "Feature", "properties": {"id": "poi_183", "name": "Chabad of Lincoln Park", "category": "chabad", "city": "Chicago, IL"}, "geometry": {"type": "Point", "coordinates": [-87.649, 41.9215]}}, {"type": "Feature", "properties": {"id": "poi_184", "name": "Milt's BBQ for the Perplexed", "category": "kosher_restaurants", "city": "Chicago, IL"}, "geometry": {"type": "Point", "coordinates": [-87.6725, 41.9395]}}, {"type": "Feature", "properties": {"id": "poi_185", "name": "Evita's Cafe", "category": "kosher_restaurants", "city": "Chicago, IL"}, "geometry": {"type": "Point", "coordinates": [-87.715, 41.998]}}, {"type": "Feature", "properties": {"id": "poi_186", "name": "Tel Aviv Kosher Bakery", "category": "kosher_bakeries", "city": "Chicago, IL"}, "geometry": {"type": "Point", "coordinates": [-87.707, 42.001]}}, {"type": "Feature", "properties": {"id": "poi_187", "name": "Hungarian Kosher Foods", "category": "kosher_delis", "city": "Chicago, IL"}, "geometry": {"type": "Point", "coordinates": [-87.706, 42.0]}}, {"type": "Feature", "properties": {"id": "poi_188", "name": "Ida Crown Jewish Academy", "category": "day_schools", "city": "Chicago, IL"}, "geometry": {"type": "Point", "coordinates": [-87.708, 41.998]}}, {"type": "Feature", "properties": {"id": "poi_189", "name": "Chicago Jewish Day School", "category": "day_schools", "city": "Chicago, IL"}, "geometry": {"type": "Point", "coordinates": [-87.644, 41.923]}}, {"type": "Feature", "properties": {"id": "poi_190", "name": "Hillel at U of Chicago", "category": "hillel", "city": "Chicago, IL"}, "geometry": {"type": "Point", "coordinates": [-87.596, 41.791]}}, {"type": "Feature", "properties": {"id": "poi_191", "name": "Illinois Holocaust Museum", "category": "jewish_museums", "city": "Chicago, IL"}, "geometry": {"type": "Point", "coordinates": [-87.74, 42.07]}}, {"type": "Feature", "properties": {"id": "poi_192", "name": "JCC of Chicago (Mayer Kaplan)", "category": "jccs", "city": "Chicago, IL"}, "geometry": {"type": "Point", "coordinates": [-87.7405, 42.07]}}, {"type": "Feature", "properties": {"id": "poi_193", "name": "Jewish Federation of Chicago", "category": "federations", "city": "Chicago, IL"}, "geometry": {"type": "Point", "coordinates": [-87.635, 41.885]}}, {"type": "Feature", "properties": {"id": "poi_194", "name": "Boca Raton Synagogue", "category": "synagogues", "city": "Boca Raton, FL"}, "geometry": {"type": "Point", "coordinates": [-80.095, 26.367]}}, {"type": "Feature", "properties": {"id": "poi_195", "name": "Congregation B'nai Israel", "category": "synagogues", "city": "Boca Raton, FL"}, "geometry": {"type": "Point", "coordinates": [-80.113, 26.351]}}, {"type": "Feature", "properties": {"id": "poi_196", "name": "Chabad of East Boca", "category": "chabad", "city": "Boca Raton, FL"}, "geometry": {"type": "Point", "coordinates": [-80.083, 26.35]}}, {"type": "Feature", "properties": {"id": "poi_197", "name": "Chabad of West Boca", "category": "chabad", "city": "Boca Raton, FL"}, "geometry": {"type": "Point", "coordinates": [-80.168, 26.36]}}, {"type": "Feature", "properties": {"id": "poi_198", "name": "Boca Kosher Grill", "category": "kosher_restaurants", "city": "Boca Raton, FL"}, "geometry": {"type": "Point", "coordinates": [-80.099, 26.369]}}, {"type": "Feature", "properties": {"id": "poi_199", "name": "Mozart Cafe", "category": "kosher_restaurants", "city": "Boca Raton, FL"}, "geometry": {"type": "Point", "coordinates": [-80.098, 26.3645]}}, {"type": "Feature", "properties": {"id": "poi_200", "name": "Weinberg Community Campus JCC", "category": "jccs", "city": "Boca Raton, FL"}, "geometry": {"type": "Point", "coordinates": [-80.104, 26.3555]}}, {"type": "Feature", "properties": {"id": "poi_201", "name": "Donna Klein Jewish Academy", "category": "day_schools", "city": "Boca Raton, FL"}, "geometry": {"type": "Point", "coordinates": [-80.15, 26.372]}}, {"type": "Feature", "properties": {"id": "poi_202", "name": "Torah Academy of Boca", "category": "day_schools", "city": "Boca Raton, FL"}, "geometry": {"type": "Point", "coordinates": [-80.099, 26.36]}}, {"type": "Feature", "properties": {"id": "poi_203", "name": "Hillel at FAU", "category": "hillel", "city": "Boca Raton, FL"}, "geometry": {"type": "Point", "coordinates": [-80.1005, 26.372]}}, {"type": "Feature", "properties": {"id": "poi_204", "name": "Congregation Rodeph Shalom", "category": "synagogues", "city": "Philadelphia, PA"}, "geometry": {"type": "Point", "coordinates": [-75.163, 39.965]}}, {"type": "Feature", "properties": {"id": "poi_205", "name": "Society Hill Synagogue", "category": "synagogues", "city": "Philadelphia, PA"}, "geometry": {"type": "Point", "coordinates": [-75.148, 39.9455]}}, {"type": "Feature", "properties": {"id": "poi_206", "name": "Mikveh Israel", "category": "synagogues", "city": "Philadelphia, PA"}, "geometry": {"type": "Point", "coordinates": [-75.149, 39.9485]}}, {"type": "Feature", "properties": {"id": "poi_207", "name": "Chabad of Center City", "category": "chabad", "city": "Philadelphia, PA"}, "geometry": {"type": "Point", "coordinates": [-75.1665, 39.951]}}, {"type": "Feature", "properties": {"id": "poi_208", "name": "Chabad of the Main Line", "category": "chabad", "city": "Philadelphia, PA"}, "geometry": {"type": "Point", "coordinates": [-75.311, 40.005]}}, {"type": "Feature", "properties": {"id": "poi_209", "name": "Sushi Bar", "category": "kosher_restaurants", "city": "Philadelphia, PA"}, "geometry": {"type": "Point", "coordinates": [-75.15, 39.9445]}}, {"type": "Feature", "properties": {"id": "poi_210", "name": "Cherry Street Kosher", "category": "kosher_restaurants", "city": "Philadelphia, PA"}, "geometry": {"type": "Point", "coordinates": [-75.159, 39.954]}}, {"type": "Feature", "properties": {"id": "poi_211", "name": "Perelman Jewish Day School", "category": "day_schools", "city": "Philadelphia, PA"}, "geometry": {"type": "Point", "coordinates": [-75.208, 39.9855]}}, {"type": "Feature", "properties": {"id": "poi_212", "name": "Kohelet Yeshiva HS", "category": "day_schools", "city": "Philadelphia, PA"}, "geometry": {"type": "Point", "coordinates": [-75.367, 40.016]}}, {"type": "Feature", "properties": {"id": "poi_213", "name": "Hillel at Penn", "category": "hillel", "city": "Philadelphia, PA"}, "geometry": {"type": "Point", "coordinates": [-75.195, 39.953]}}, {"type": "Feature", "properties": {"id": "poi_214", "name": "National Museum of American Jewish History", "category": "jewish_museums", "city": "Philadelphia, PA"}, "geometry": {"type": "Point", "coordinates": [-75.149, 39.951]}}, {"type": "Feature", "properties": {"id": "poi_215", "name": "Kaiserman JCC", "category": "jccs", "city": "Philadelphia, PA"}, "geometry": {"type": "Point", "coordinates": [-75.283, 39.987]}}, {"type": "Feature", "properties": {"id": "poi_216", "name": "Jewish Federation of Greater Phila", "category": "federations", "city": "Philadelphia, PA"}, "geometry": {"type": "Point", "coordinates": [-75.166, 39.952]}}, {"type": "Feature", "properties": {"id": "poi_217", "name": "Temple Israel of Boston", "category": "synagogues", "city": "Boston, MA"}, "geometry": {"type": "Point", "coordinates": [-71.106, 42.343]}}, {"type": "Feature", "properties": {"id": "poi_218", "name": "Congregation Kehillath Israel", "category": "synagogues", "city": "Brookline, MA"}, "geometry": {"type": "Point", "coordinates": [-71.12, 42.34]}}, {"type": "Feature", "properties": {"id": "poi_219", "name": "Young Israel of Brookline", "category": "synagogues", "city": "Brookline, MA"}, "geometry": {"type": "Point", "coordinates": [-71.131, 42.3395]}}, {"type": "Feature", "properties": {"id": "poi_220", "name": "Chabad of Brookline", "category": "chabad", "city": "Brookline, MA"}, "geometry": {"type": "Point", "coordinates": [-71.126, 42.3415]}}, {"type": "Feature", "properties": {"id": "poi_221", "name": "Chabad at Harvard", "category": "chabad", "city": "Boston, MA"}, "geometry": {"type": "Point", "coordinates": [-71.1175, 42.373]}}, {"type": "Feature", "properties": {"id": "poi_222", "name": "Rami's", "category": "kosher_restaurants", "city": "Brookline, MA"}, "geometry": {"type": "Point", "coordinates": [-71.121, 42.3415]}}, {"type": "Feature", "properties": {"id": "poi_223", "name": "Cafe Eilat", "category": "kosher_restaurants", "city": "Brookline, MA"}, "geometry": {"type": "Point", "coordinates": [-71.123, 42.341]}}, {"type": "Feature", "properties": {"id": "poi_224", "name": "The Butcherie", "category": "kosher_delis", "city": "Brookline, MA"}, "geometry": {"type": "Point", "coordinates": [-71.122, 42.343]}}, {"type": "Feature", "properties": {"id": "poi_225", "name": "Maimonides School", "category": "day_schools", "city": "Brookline, MA"}, "geometry": {"type": "Point", "coordinates": [-71.138, 42.337]}}, {"type": "Feature", "properties": {"id": "poi_226", "name": "Gann Academy", "category": "day_schools", "city": "Boston, MA"}, "geometry": {"type": "Point", "coordinates": [-71.224, 42.32]}}, {"type": "Feature", "properties": {"id": "poi_227", "name": "Hillel at BU", "category": "hillel", "city": "Boston, MA"}, "geometry": {"type": "Point", "coordinates": [-71.105, 42.351]}}, {"type": "Feature", "properties": {"id": "poi_228", "name": "Vilna Shul", "category": "jewish_museums", "city": "Boston, MA"}, "geometry": {"type": "Point", "coordinates": [-71.061, 42.362]}}, {"type": "Feature", "properties": {"id": "poi_229", "name": "JCC Greater Boston (Leventhal-Sidman)", "category": "jccs", "city": "Boston, MA"}, "geometry": {"type": "Point", "coordinates": [-71.111, 42.322]}}, {"type": "Feature", "properties": {"id": "poi_230", "name": "Combined Jewish Philanthropies", "category": "federations", "city": "Boston, MA"}, "geometry": {"type": "Point", "coordinates": [-71.059, 42.353]}}, {"type": "Feature", "properties": {"id": "poi_231", "name": "Adas Israel Congregation", "category": "synagogues", "city": "Washington, DC"}, "geometry": {"type": "Point", "coordinates": [-77.0555, 38.937]}}, {"type": "Feature", "properties": {"id": "poi_232", "name": "Sixth & I Historic Synagogue", "category": "synagogues", "city": "Washington, DC"}, "geometry": {"type": "Point", "coordinates": [-77.019, 38.901]}}, {"type": "Feature", "properties": {"id": "poi_233", "name": "Congregation Beth El", "category": "synagogues", "city": "Bethesda, MD"}, "geometry": {"type": "Point", "coordinates": [-77.097, 38.981]}}, {"type": "Feature", "properties": {"id": "poi_234", "name": "Chabad of Georgetown", "category": "chabad", "city": "Washington, DC"}, "geometry": {"type": "Point", "coordinates": [-77.066, 38.9085]}}, {"type": "Feature", "properties": {"id": "poi_235", "name": "Chabad of Bethesda", "category": "chabad", "city": "Bethesda, MD"}, "geometry": {"type": "Point", "coordinates": [-77.096, 38.985]}}, {"type": "Feature", "properties": {"id": "poi_236", "name": "Char Bar", "category": "kosher_restaurants", "city": "Washington, DC"}, "geometry": {"type": "Point", "coordinates": [-77.023, 38.9315]}}, {"type": "Feature", "properties": {"id": "poi_237", "name": "Max's Kosher Cafe", "category": "kosher_restaurants", "city": "Silver Spring, MD"}, "geometry": {"type": "Point", "coordinates": [-77.028, 38.993]}}, {"type": "Feature", "properties": {"id": "poi_238", "name": "Shalem Kosher Market", "category": "kosher_delis", "city": "Silver Spring, MD"}, "geometry": {"type": "Point", "coordinates": [-77.026, 38.9935]}}, {"type": "Feature", "properties": {"id": "poi_239", "name": "Charles E. Smith Jewish Day School", "category": "day_schools", "city": "Rockville, MD"}, "geometry": {"type": "Point", "coordinates": [-77.151, 39.063]}}, {"type": "Feature", "properties": {"id": "poi_240", "name": "Hillel at GW", "category": "hillel", "city": "Washington, DC"}, "geometry": {"type": "Point", "coordinates": [-77.048, 38.8995]}}, {"type": "Feature", "properties": {"id": "poi_241", "name": "United States Holocaust Memorial Museum", "category": "jewish_museums", "city": "Washington, DC"}, "geometry": {"type": "Point", "coordinates": [-77.033, 38.887]}}, {"type": "Feature", "properties": {"id": "poi_242", "name": "Edlavitch DC JCC", "category": "jccs", "city": "Washington, DC"}, "geometry": {"type": "Point", "coordinates": [-77.0315, 38.9095]}}, {"type": "Feature", "properties": {"id": "poi_243", "name": "Jewish Federation of Greater Washington", "category": "federations", "city": "Rockville, MD"}, "geometry": {"type": "Point", "coordinates": [-77.1475, 39.078]}}, {"type": "Feature", "properties": {"id": "poi_244", "name": "The Temple (Hebrew Benevolent)", "category": "synagogues", "city": "Atlanta, GA"}, "geometry": {"type": "Point", "coordinates": [-84.388, 33.793]}}, {"type": "Feature", "properties": {"id": "poi_245", "name": "Congregation Beth Jacob", "category": "synagogues", "city": "Atlanta, GA"}, "geometry": {"type": "Point", "coordinates": [-84.337, 33.8505]}}, {"type": "Feature", "properties": {"id": "poi_246", "name": "Chabad of Buckhead", "category": "chabad", "city": "Atlanta, GA"}, "geometry": {"type": "Point", "coordinates": [-84.359, 33.838]}}, {"type": "Feature", "properties": {"id": "poi_247", "name": "Chabad Intown Atlanta", "category": "chabad", "city": "Atlanta, GA"}, "geometry": {"type": "Point", "coordinates": [-84.348, 33.77]}}, {"type": "Feature", "properties": {"id": "poi_248", "name": "Ali's Cookies Kosher", "category": "kosher_restaurants", "city": "Atlanta, GA"}, "geometry": {"type": "Point", "coordinates": [-84.338, 33.851]}}, {"type": "Feature", "properties": {"id": "poi_249", "name": "Fuego Mundo", "category": "kosher_restaurants", "city": "Atlanta, GA"}, "geometry": {"type": "Point", "coordinates": [-84.3365, 33.8535]}}, {"type": "Feature", "properties": {"id": "poi_250", "name": "Atlanta Jewish Academy", "category": "day_schools", "city": "Atlanta, GA"}, "geometry": {"type": "Point", "coordinates": [-84.338, 33.903]}}, {"type": "Feature", "properties": {"id": "poi_251", "name": "Weber School", "category": "day_schools", "city": "Atlanta, GA"}, "geometry": {"type": "Point", "coordinates": [-84.347, 33.8545]}}, {"type": "Feature", "properties": {"id": "poi_252", "name": "Hillel at Emory", "category": "hillel", "city": "Atlanta, GA"}, "geometry": {"type": "Point", "coordinates": [-84.324, 33.791]}}, {"type": "Feature", "properties": {"id": "poi_253", "name": "William Breman Jewish Heritage Museum", "category": "jewish_museums", "city": "Atlanta, GA"}, "geometry": {"type": "Point", "coordinates": [-84.361, 33.8165]}}, {"type": "Feature", "properties": {"id": "poi_254", "name": "Marcus JCC of Atlanta", "category": "jccs", "city": "Atlanta, GA"}, "geometry": {"type": "Point", "coordinates": [-84.338, 33.898]}}, {"type": "Feature", "properties": {"id": "poi_255", "name": "Jewish Federation of Greater Atlanta", "category": "federations", "city": "Atlanta, GA"}, "geometry": {"type": "Point", "coordinates": [-84.338, 33.851]}}, {"type": "Feature", "properties": {"id": "poi_256", "name": "Congregation Emanu-El", "category": "synagogues", "city": "San Francisco, CA"}, "geometry": {"type": "Point", "coordinates": [-122.442, 37.7875]}}, {"type": "Feature", "properties": {"id": "poi_257", "name": "Congregation Sherith Israel", "category": "synagogues", "city": "San Francisco, CA"}, "geometry": {"type": "Point", "coordinates": [-122.43, 37.7905]}}, {"type": "Feature", "properties": {"id": "poi_258", "name": "Congregation Beth Sholom", "category": "synagogues", "city": "San Francisco, CA"}, "geometry": {"type": "Point", "coordinates": [-122.459, 37.7755]}}, {"type": "Feature", "properties": {"id": "poi_259", "name": "Chabad of SF", "category": "chabad", "city": "San Francisco, CA"}, "geometry": {"type": "Point", "coordinates": [-122.422, 37.788]}}, {"type": "Feature", "properties": {"id": "poi_260", "name": "Chabad of Palo Alto", "category": "chabad", "city": "Palo Alto, CA"}, "geometry": {"type": "Point", "coordinates": [-122.159, 37.444]}}, {"type": "Feature", "properties": {"id": "poi_261", "name": "Sabra Grill", "category": "kosher_restaurants", "city": "San Francisco, CA"}, "geometry": {"type": "Point", "coordinates": [-122.408, 37.788]}}, {"type": "Feature", "properties": {"id": "poi_262", "name": "Shangri-La Vegan", "category": "kosher_restaurants", "city": "San Francisco, CA"}, "geometry": {"type": "Point", "coordinates": [-122.417, 37.7825]}}, {"type": "Feature", "properties": {"id": "poi_263", "name": "Jewish Community HS", "category": "day_schools", "city": "San Francisco, CA"}, "geometry": {"type": "Point", "coordinates": [-122.438, 37.7885]}}, {"type": "Feature", "properties": {"id": "poi_264", "name": "Brandeis Hillel Day School", "category": "day_schools", "city": "San Francisco, CA"}, "geometry": {"type": "Point", "coordinates": [-122.463, 37.777]}}, {"type": "Feature", "properties": {"id": "poi_265", "name": "Hillel at Stanford", "category": "hillel", "city": "Palo Alto, CA"}, "geometry": {"type": "Point", "coordinates": [-122.165, 37.428]}}, {"type": "Feature", "properties": {"id": "poi_266", "name": "Contemporary Jewish Museum", "category": "jewish_museums", "city": "San Francisco, CA"}, "geometry": {"type": "Point", "coordinates": [-122.4015, 37.7855]}}, {"type": "Feature", "properties": {"id": "poi_267", "name": "JCCSF", "category": "jccs", "city": "San Francisco, CA"}, "geometry": {"type": "Point", "coordinates": [-122.4385, 37.771]}}, {"type": "Feature", "properties": {"id": "poi_268", "name": "Jewish Community Federation Bay Area", "category": "federations", "city": "San Francisco, CA"}, "geometry": {"type": "Point", "coordinates": [-122.4, 37.791]}}, {"type": "Feature", "properties": {"id": "poi_269", "name": "Temple Emanuel", "category": "synagogues", "city": "Denver, CO"}, "geometry": {"type": "Point", "coordinates": [-104.953, 39.725]}}, {"type": "Feature", "properties": {"id": "poi_270", "name": "BMH-BJ Congregation", "category": "synagogues", "city": "Denver, CO"}, "geometry": {"type": "Point", "coordinates": [-104.938, 39.693]}}, {"type": "Feature", "properties": {"id": "poi_271", "name": "Chabad of SE Denver", "category": "chabad", "city": "Denver, CO"}, "geometry": {"type": "Point", "coordinates": [-104.939, 39.654]}}, {"type": "Feature", "properties": {"id": "poi_272", "name": "Chabad of NW Denver", "category": "chabad", "city": "Denver, CO"}, "geometry": {"type": "Point", "coordinates": [-105.02, 39.758]}}, {"type": "Feature", "properties": {"id": "poi_273", "name": "East Side Kosher Deli", "category": "kosher_restaurants", "city": "Denver, CO"}, "geometry": {"type": "Point", "coordinates": [-104.939, 39.6925]}}, {"type": "Feature", "properties": {"id": "poi_274", "name": "Denver Academy of Torah", "category": "day_schools", "city": "Denver, CO"}, "geometry": {"type": "Point", "coordinates": [-104.94, 39.692]}}, {"type": "Feature", "properties": {"id": "poi_275", "name": "Hillel at CU Boulder", "category": "hillel", "city": "Boulder, CO"}, "geometry": {"type": "Point", "coordinates": [-105.265, 40.008]}}, {"type": "Feature", "properties": {"id": "poi_276", "name": "Mizel Museum", "category": "jewish_museums", "city": "Denver, CO"}, "geometry": {"type": "Point", "coordinates": [-104.972, 39.7265]}}, {"type": "Feature", "properties": {"id": "poi_277", "name": "JCC Denver (Staenberg-Loup)", "category": "jccs", "city": "Denver, CO"}, "geometry": {"type": "Point", "coordinates": [-104.938, 39.69]}}, {"type": "Feature", "properties": {"id": "poi_278", "name": "Congregation Shearith Israel", "category": "synagogues", "city": "Dallas, TX"}, "geometry": {"type": "Point", "coordinates": [-96.788, 32.86]}}, {"type": "Feature", "properties": {"id": "poi_279", "name": "Temple Emanu-El Dallas", "category": "synagogues", "city": "Dallas, TX"}, "geometry": {"type": "Point", "coordinates": [-96.805, 32.835]}}, {"type": "Feature", "properties": {"id": "poi_280", "name": "Chabad of Dallas", "category": "chabad", "city": "Dallas, TX"}, "geometry": {"type": "Point", "coordinates": [-96.77, 32.882]}}, {"type": "Feature", "properties": {"id": "poi_281", "name": "Congregation Beth Yeshurun", "category": "synagogues", "city": "Houston, TX"}, "geometry": {"type": "Point", "coordinates": [-95.429, 29.715]}}, {"type": "Feature", "properties": {"id": "poi_282", "name": "Congregation Emanu El Houston", "category": "synagogues", "city": "Houston, TX"}, "geometry": {"type": "Point", "coordinates": [-95.432, 29.734]}}, {"type": "Feature", "properties": {"id": "poi_283", "name": "Chabad of Uptown Houston", "category": "chabad", "city": "Houston, TX"}, "geometry": {"type": "Point", "coordinates": [-95.411, 29.755]}}, {"type": "Feature", "properties": {"id": "poi_284", "name": "Katz's Deli", "category": "kosher_restaurants", "city": "Houston, TX"}, "geometry": {"type": "Point", "coordinates": [-95.387, 29.753]}}, {"type": "Feature", "properties": {"id": "poi_285", "name": "Akiba Academy", "category": "day_schools", "city": "Dallas, TX"}, "geometry": {"type": "Point", "coordinates": [-96.769, 32.8815]}}, {"type": "Feature", "properties": {"id": "poi_286", "name": "Robert M. Beren Academy", "category": "day_schools", "city": "Houston, TX"}, "geometry": {"type": "Point", "coordinates": [-95.464, 29.707]}}, {"type": "Feature", "properties": {"id": "poi_287", "name": "Dallas Holocaust & Human Rights Museum", "category": "jewish_museums", "city": "Dallas, TX"}, "geometry": {"type": "Point", "coordinates": [-96.793, 32.787]}}, {"type": "Feature", "properties": {"id": "poi_288", "name": "Holocaust Museum Houston", "category": "jewish_museums", "city": "Houston, TX"}, "geometry": {"type": "Point", "coordinates": [-95.3865, 29.725]}}, {"type": "Feature", "properties": {"id": "poi_289", "name": "Aaron Family JCC Dallas", "category": "jccs", "city": "Dallas, TX"}, "geometry": {"type": "Point", "coordinates": [-96.77, 32.882]}}, {"type": "Feature", "properties": {"id": "poi_290", "name": "Evelyn Rubenstein JCC Houston", "category": "jccs", "city": "Houston, TX"}, "geometry": {"type": "Point", "coordinates": [-95.431, 29.714]}}, {"type": "Feature", "properties": {"id": "poi_291", "name": "Beth El Congregation", "category": "synagogues", "city": "Phoenix, AZ"}, "geometry": {"type": "Point", "coordinates": [-111.9755, 33.544]}}, {"type": "Feature", "properties": {"id": "poi_292", "name": "Congregation Beth Israel", "category": "synagogues", "city": "Scottsdale, AZ"}, "geometry": {"type": "Point", "coordinates": [-111.9135, 33.502]}}, {"type": "Feature", "properties": {"id": "poi_293", "name": "Chabad of Scottsdale", "category": "chabad", "city": "Scottsdale, AZ"}, "geometry": {"type": "Point", "coordinates": [-111.928, 33.494]}}, {"type": "Feature", "properties": {"id": "poi_294", "name": "Segal's Kosher", "category": "kosher_restaurants", "city": "Scottsdale, AZ"}, "geometry": {"type": "Point", "coordinates": [-111.927, 33.496]}}, {"type": "Feature", "properties": {"id": "poi_295", "name": "Pardes Jewish Day School", "category": "day_schools", "city": "Scottsdale, AZ"}, "geometry": {"type": "Point", "coordinates": [-111.925, 33.534]}}, {"type": "Feature", "properties": {"id": "poi_296", "name": "Hillel at ASU", "category": "hillel", "city": "Tempe, AZ"}, "geometry": {"type": "Point", "coordinates": [-111.939, 33.4195]}}, {"type": "Feature", "properties": {"id": "poi_297", "name": "Valley of the Sun JCC", "category": "jccs", "city": "Scottsdale, AZ"}, "geometry": {"type": "Point", "coordinates": [-111.926, 33.534]}}, {"type": "Feature", "properties": {"id": "poi_298", "name": "Congregation Shaarey Zedek", "category": "synagogues", "city": "Southfield, MI"}, "geometry": {"type": "Point", "coordinates": [-83.272, 42.476]}}, {"type": "Feature", "properties": {"id": "poi_299", "name": "Young Israel of Southfield", "category": "synagogues", "city": "Southfield, MI"}, "geometry": {"type": "Point", "coordinates": [-83.254, 42.489]}}, {"type": "Feature", "properties": {"id": "poi_300", "name": "Chabad of Greater Downtown Detroit", "category": "chabad", "city": "Detroit, MI"}, "geometry": {"type": "Point", "coordinates": [-83.057, 42.331]}}, {"type": "Feature", "properties": {"id": "poi_301", "name": "Chabad of Oak Park", "category": "chabad", "city": "Oak Park, MI"}, "geometry": {"type": "Point", "coordinates": [-83.183, 42.464]}}, {"type": "Feature", "properties": {"id": "poi_302", "name": "Jerusalem Pizza", "category": "kosher_restaurants", "city": "Southfield, MI"}, "geometry": {"type": "Point", "coordinates": [-83.263, 42.478]}}, {"type": "Feature", "properties": {"id": "poi_303", "name": "Hillel Day School of Metro Detroit", "category": "day_schools", "city": "Farmington Hills, MI"}, "geometry": {"type": "Point", "coordinates": [-83.35, 42.506]}}, {"type": "Feature", "properties": {"id": "poi_304", "name": "Holocaust Memorial Center", "category": "jewish_museums", "city": "Farmington Hills, MI"}, "geometry": {"type": "Point", "coordinates": [-83.368, 42.494]}}, {"type": "Feature", "properties": {"id": "poi_305", "name": "JCC of Metro Detroit", "category": "jccs", "city": "West Bloomfield, MI"}, "geometry": {"type": "Point", "coordinates": [-83.378, 42.559]}}, {"type": "Feature", "properties": {"id": "poi_306", "name": "Congregation Beth Israel", "category": "synagogues", "city": "San Diego, CA"}, "geometry": {"type": "Point", "coordinates": [-117.1475, 32.76]}}, {"type": "Feature", "properties": {"id": "poi_307", "name": "Tifereth Israel Synagogue", "category": "synagogues", "city": "San Diego, CA"}, "geometry": {"type": "Point", "coordinates": [-117.151, 32.7565]}}, {"type": "Feature", "properties": {"id": "poi_308", "name": "Chabad of La Jolla", "category": "chabad", "city": "San Diego, CA"}, "geometry": {"type": "Point", "coordinates": [-117.259, 32.842]}}, {"type": "Feature", "properties": {"id": "poi_309", "name": "Chabad of University City", "category": "chabad", "city": "San Diego, CA"}, "geometry": {"type": "Point", "coordinates": [-117.21, 32.859]}}, {"type": "Feature", "properties": {"id": "poi_310", "name": "Ben & Esther's Kosher Deli", "category": "kosher_restaurants", "city": "San Diego, CA"}, "geometry": {"type": "Point", "coordinates": [-117.172, 32.824]}}, {"type": "Feature", "properties": {"id": "poi_311", "name": "San Diego Jewish Academy", "category": "day_schools", "city": "San Diego, CA"}, "geometry": {"type": "Point", "coordinates": [-117.226, 32.873]}}, {"type": "Feature", "properties": {"id": "poi_312", "name": "Hillel at UCSD", "category": "hillel", "city": "San Diego, CA"}, "geometry": {"type": "Point", "coordinates": [-117.237, 32.88]}}, {"type": "Feature", "properties": {"id": "poi_313", "name": "Lawrence Family JCC", "category": "jccs", "city": "San Diego, CA"}, "geometry": {"type": "Point", "coordinates": [-117.173, 32.809]}}, {"type": "Feature", "properties": {"id": "poi_314", "name": "Congregation Shaarey Tikvah", "category": "synagogues", "city": "Beachwood, OH"}, "geometry": {"type": "Point", "coordinates": [-81.505, 41.475]}}, {"type": "Feature", "properties": {"id": "poi_315", "name": "Park Synagogue", "category": "synagogues", "city": "Cleveland Heights, OH"}, "geometry": {"type": "Point", "coordinates": [-81.564, 41.511]}}, {"type": "Feature", "properties": {"id": "poi_316", "name": "Chabad of the Heights", "category": "chabad", "city": "Cleveland Heights, OH"}, "geometry": {"type": "Point", "coordinates": [-81.555, 41.509]}}, {"type": "Feature", "properties": {"id": "poi_317", "name": "Boris's Kosher Meats", "category": "kosher_restaurants", "city": "Cleveland, OH"}, "geometry": {"type": "Point", "coordinates": [-81.507, 41.474]}}, {"type": "Feature", "properties": {"id": "poi_318", "name": "Fuchs Mizrachi School", "category": "day_schools", "city": "Beachwood, OH"}, "geometry": {"type": "Point", "coordinates": [-81.506, 41.477]}}, {"type": "Feature", "properties": {"id": "poi_319", "name": "Maltz Museum of Jewish Heritage", "category": "jewish_museums", "city": "Beachwood, OH"}, "geometry": {"type": "Point", "coordinates": [-81.507, 41.465]}}, {"type": "Feature", "properties": {"id": "poi_320", "name": "Mandel JCC of Cleveland", "category": "jccs", "city": "Beachwood, OH"}, "geometry": {"type": "Point", "coordinates": [-81.506, 41.474]}}, {"type": "Feature", "properties": {"id": "poi_321", "name": "Beth Tfiloh Congregation", "category": "synagogues", "city": "Baltimore, MD"}, "geometry": {"type": "Point", "coordinates": [-76.617, 39.383]}}, {"type": "Feature", "properties": {"id": "poi_322", "name": "Shearith Israel Congregation", "category": "synagogues", "city": "Baltimore, MD"}, "geometry": {"type": "Point", "coordinates": [-76.643, 39.354]}}, {"type": "Feature", "properties": {"id": "poi_323", "name": "Chabad of Baltimore", "category": "chabad", "city": "Baltimore, MD"}, "geometry": {"type": "Point", "coordinates": [-76.634, 39.364]}}, {"type": "Feature", "properties": {"id": "poi_324", "name": "David Chu's China Bistro Kosher", "category": "kosher_restaurants", "city": "Baltimore, MD"}, "geometry": {"type": "Point", "coordinates": [-76.64, 39.358]}}, {"type": "Feature", "properties": {"id": "poi_325", "name": "Goldberg's Bagels", "category": "kosher_bakeries", "city": "Baltimore, MD"}, "geometry": {"type": "Point", "coordinates": [-76.631, 39.366]}}, {"type": "Feature", "properties": {"id": "poi_326", "name": "Seven Mile Market", "category": "kosher_delis", "city": "Baltimore, MD"}, "geometry": {"type": "Point", "coordinates": [-76.616, 39.386]}}, {"type": "Feature", "properties": {"id": "poi_327", "name": "Beth Tfiloh Day School", "category": "day_schools", "city": "Baltimore, MD"}, "geometry": {"type": "Point", "coordinates": [-76.617, 39.383]}}, {"type": "Feature", "properties": {"id": "poi_328", "name": "Krieger Schechter Day School", "category": "day_schools", "city": "Baltimore, MD"}, "geometry": {"type": "Point", "coordinates": [-76.643, 39.355]}}, {"type": "Feature", "properties": {"id": "poi_329", "name": "Jewish Museum of Maryland", "category": "jewish_museums", "city": "Baltimore, MD"}, "geometry": {"type": "Point", "coordinates": [-76.593, 39.294]}}, {"type": "Feature", "properties": {"id": "poi_330", "name": "Gordon Center JCC", "category": "jccs", "city": "Baltimore, MD"}, "geometry": {"type": "Point", "coordinates": [-76.643, 39.3575]}}, {"type": "Feature", "properties": {"id": "poi_331", "name": "Baltimore Jewish Federation", "category": "federations", "city": "Baltimore, MD"}, "geometry": {"type": "Point", "coordinates": [-76.631, 39.3665]}}, {"type": "Feature", "properties": {"id": "poi_332", "name": "Temple Beth Sholom", "category": "synagogues", "city": "Las Vegas, NV"}, "geometry": {"type": "Point", "coordinates": [-115.1205, 36.123]}}, {"type": "Feature", "properties": {"id": "poi_333", "name": "Congregation Ner Tamid", "category": "synagogues", "city": "Henderson, NV"}, "geometry": {"type": "Point", "coordinates": [-115.0985, 36.029]}}, {"type": "Feature", "properties": {"id": "poi_334", "name": "Chabad of Summerlin", "category": "chabad", "city": "Las Vegas, NV"}, "geometry": {"type": "Point", "coordinates": [-115.308, 36.172]}}, {"type": "Feature", "properties": {"id": "poi_335", "name": "Jerusalem Grill", "category": "kosher_restaurants", "city": "Las Vegas, NV"}, "geometry": {"type": "Point", "coordinates": [-115.1185, 36.117]}}, {"type": "Feature", "properties": {"id": "poi_336", "name": "JCC Las Vegas", "category": "jccs", "city": "Las Vegas, NV"}, "geometry": {"type": "Point", "coordinates": [-115.252, 36.142]}}, {"type": "Feature", "properties": {"id": "poi_337", "name": "Temple De Hirsch Sinai", "category": "synagogues", "city": "Seattle, WA"}, "geometry": {"type": "Point", "coordinates": [-122.317, 47.6215]}}, {"type": "Feature", "properties": {"id": "poi_338", "name": "Congregation Bikur Cholim Machzikay Hadath", "category": "synagogues", "city": "Seattle, WA"}, "geometry": {"type": "Point", "coordinates": [-122.283, 47.609]}}, {"type": "Feature", "properties": {"id": "poi_339", "name": "Chabad of the Central District", "category": "chabad", "city": "Seattle, WA"}, "geometry": {"type": "Point", "coordinates": [-122.299, 47.611]}}, {"type": "Feature", "properties": {"id": "poi_340", "name": "Chabad of Bellevue", "category": "chabad", "city": "Bellevue, WA"}, "geometry": {"type": "Point", "coordinates": [-122.202, 47.618]}}, {"type": "Feature", "properties": {"id": "poi_341", "name": "Northwest Yeshiva High School", "category": "day_schools", "city": "Mercer Island, WA"}, "geometry": {"type": "Point", "coordinates": [-122.231, 47.574]}}, {"type": "Feature", "properties": {"id": "poi_342", "name": "Hillel at UW", "category": "hillel", "city": "Seattle, WA"}, "geometry": {"type": "Point", "coordinates": [-122.3055, 47.655]}}, {"type": "Feature", "properties": {"id": "poi_343", "name": "Stroum JCC", "category": "jccs", "city": "Mercer Island, WA"}, "geometry": {"type": "Point", "coordinates": [-122.222, 47.565]}}, {"type": "Feature", "properties": {"id": "poi_344", "name": "Washington State Jewish Historical Society", "category": "jewish_museums", "city": "Seattle, WA"}, "geometry": {"type": "Point", "coordinates": [-122.31, 47.6175]}}]}